__time,/carmaker/odom/orientation/pitch_deg,/carmaker/odom/orientation/roll_deg,/carmaker/odom/orientation/w,/carmaker/odom/orientation/x,/carmaker/odom/orientation/y,/carmaker/odom/orientation/yaw_deg,/carmaker/odom/orientation/z,/carmaker/odom/position/x,/carmaker/odom/position/y,/carmaker/odom/position/z
1679401988.979914,0.000000,0.000002,-3.050313,-0.000000,-0.000000,0.000000,0.000000,0.021349,1.749870,0.000000
1679401989.058642,0.000000,0.000005,-3.050313,-0.000000,-0.000000,0.000000,0.000000,0.021349,1.749870,0.000000
1679401989.158655,0.082826,0.904908,-3.050313,-0.024088,-0.002205,0.000654,0.000000,0.020654,1.749806,0.000000
1679401989.257620,0.435516,4.763612,-3.050313,-0.126874,-0.011613,0.018115,0.000000,0.013695,1.749169,0.000000
1679401989.356755,0.995827,10.949413,-3.050313,-0.292330,-0.026752,0.095446,0.000000,-0.006943,1.747280,0.000000
1679401989.466339,1.653984,18.413665,-3.050308,-0.494310,-0.045187,0.268107,0.000000,-0.046164,1.743693,0.000000
1679401989.565419,2.317179,26.367961,-3.050278,-0.714228,-0.065072,0.542876,0.000000,-0.106627,1.738174,0.000000
1679401989.565450,2.317179,26.367961,-3.050278,-0.714228,-0.065072,0.542876,0.000000,-0.106627,1.738174,0.000000
1679401989.565454,2.317179,26.367961,-3.050278,-0.714228,-0.065072,0.542876,0.000000,-0.106627,1.738174,0.000000
1679401989.665411,2.916106,34.208294,-3.050171,-0.937931,-0.084983,0.897518,0.000000,-0.189349,1.730658,0.000000
1679401989.665423,2.916106,34.208294,-3.050171,-0.937931,-0.084983,0.897518,0.000000,-0.189349,1.730658,0.000000
1679401989.765427,3.407368,41.627711,-3.049872,-1.158208,-0.103810,1.295607,0.000000,-0.294321,1.721194,0.000000
1679401989.864500,3.778333,48.443951,-3.049138,-1.369949,-0.120902,1.700284,0.000000,-0.420920,1.709936,0.000000
1679401989.963549,3.865981,54.608862,-3.047274,-1.570845,-0.130214,1.996316,0.000000,-0.568155,1.697266,0.000000
1679401990.062528,3.781172,60.149120,-3.042351,-1.759222,-0.134052,2.190155,0.000000,-0.734864,1.684053,0.000000
1679401990.161648,3.801590,65.128491,-3.033146,-1.934110,-0.141655,2.428404,0.000000,-0.919730,1.670324,0.000000
1679401990.260662,4.077074,69.636139,-3.019106,-2.095801,-0.159345,2.836165,0.000000,-1.121413,1.655371,0.000000
1679401990.260679,4.077074,69.636139,-3.019106,-2.095801,-0.159345,2.836165,0.000000,-1.121413,1.655371,0.000000
1679401990.359519,4.691314,73.750539,-3.000197,-2.244692,-0.191869,3.520032,0.000000,-1.338618,1.637933,0.000000
1679401990.459564,5.748959,77.537539,-2.976922,-2.380937,-0.245488,4.618500,0.000000,-1.570074,1.616292,0.000000
1679401990.459577,5.748959,77.537539,-2.976922,-2.380937,-0.245488,4.618500,0.000000,-1.570074,1.616292,0.000000
1679401990.558710,7.187120,81.027471,-2.951069,-2.504517,-0.319735,6.143533,0.000000,-1.814514,1.588071,0.000000
1679401990.663839,8.653388,84.236507,-2.923044,-2.615497,-0.400072,7.826658,0.000000,-2.070676,1.552100,0.000000
1679401990.663893,8.653388,84.236507,-2.923044,-2.615497,-0.400072,7.826658,0.000000,-2.070676,1.552100,0.000000
1679401990.663927,8.653388,84.236507,-2.923044,-2.615497,-0.400072,7.826658,0.000000,-2.070676,1.552100,0.000000
1679401990.664054,8.653388,84.236507,-2.923044,-2.615497,-0.400072,7.826658,0.000000,-2.070676,1.552100,0.000000
1679401990.664080,8.653388,84.236507,-2.923044,-2.615497,-0.400072,7.826658,0.000000,-2.070676,1.552100,0.000000
1679401990.764450,10.286741,87.233408,-2.892508,-2.713814,-0.493110,9.804073,0.000000,-2.337299,1.507526,0.000000
1679401990.861826,12.072368,90.054972,-2.860000,-2.799374,-0.598722,12.083871,0.000000,-2.613104,1.452966,0.000000
1679401990.861844,12.072368,90.054972,-2.860000,-2.799374,-0.598722,12.083871,0.000000,-2.613104,1.452966,0.000000
1679401990.961522,13.987643,92.732809,-2.826018,-2.871972,-0.716220,14.663969,0.000000,-2.896817,1.387252,0.000000
1679401990.961535,13.987643,92.732809,-2.826018,-2.871972,-0.716220,14.663969,0.000000,-2.896817,1.387252,0.000000
1679401991.065681,15.954053,95.289360,-2.791090,-2.932037,-0.841789,17.476482,0.000000,-3.187155,1.309365,0.000000
1679401991.166172,17.991223,97.740958,-2.755865,-2.978843,-0.976277,20.550085,0.000000,-3.482826,1.218438,0.000000
1679401991.166214,17.991223,97.740958,-2.755865,-2.978843,-0.976277,20.550085,0.000000,-3.482826,1.218438,0.000000
1679401991.265562,20.022959,100.098061,-2.721064,-3.013401,-1.115435,23.801917,0.000000,-3.782565,1.113841,0.000000
1679401991.265619,20.022959,100.098061,-2.721064,-3.013401,-1.115435,23.801917,0.000000,-3.782565,1.113841,0.000000
1679401991.356530,22.039444,102.358377,-2.687734,-3.035876,-1.258159,27.210731,0.000000,-4.085123,0.995068,0.000000
1679401991.356554,22.039444,102.358377,-2.687734,-3.035876,-1.258159,27.210731,0.000000,-4.085123,0.995068,0.000000
1679401991.459900,23.905502,104.502233,-2.656604,-3.049452,-1.396166,30.583964,0.000000,-4.389462,0.862231,0.000000
1679401991.459938,23.905502,104.502233,-2.656604,-3.049452,-1.396166,30.583964,0.000000,-4.389462,0.862231,0.000000
1679401991.562559,25.587013,106.525088,-2.627848,-3.056306,-1.526538,33.842621,0.000000,-4.694802,0.715961,0.000000
1679401991.562602,25.587013,106.525088,-2.627848,-3.056306,-1.526538,33.842621,0.000000,-4.694802,0.715961,0.000000
1679401991.660402,27.087522,108.428602,-2.601425,-3.057965,-1.648539,36.956516,0.000000,-5.000553,0.557074,0.000000
1679401991.660466,27.087522,108.428602,-2.601425,-3.057965,-1.648539,36.956516,0.000000,-5.000553,0.557074,0.000000
1679401991.758038,28.412891,110.214526,-2.577212,-3.055862,-1.761698,39.901025,0.000000,-5.306271,0.386434,0.000000
1679401991.866331,29.586045,111.887293,-2.555072,-3.050754,-1.866636,42.679876,0.000000,-5.611619,0.204894,0.000000
1679401991.866370,29.586045,111.887293,-2.555072,-3.050754,-1.866636,42.679876,0.000000,-5.611619,0.204894,0.000000
1679401991.963996,30.622293,113.450909,-2.534876,-3.043478,-1.963706,45.290936,0.000000,-5.916349,0.013275,0.000000
1679401992.061949,31.528208,114.904596,-2.516555,-3.034999,-2.052794,47.719731,0.000000,-6.220272,-0.187665,0.000000
1679401992.159390,32.337583,116.256552,-2.500036,-3.025085,-2.135493,50.000684,0.000000,-6.523278,-0.397177,0.000000
1679401992.258880,33.021993,117.496540,-2.485238,-3.015877,-2.209802,52.066904,0.000000,-6.825322,-0.614535,0.000000
1679401992.362925,33.620637,118.637741,-2.472007,-3.006606,-2.277794,53.970431,0.000000,-7.126434,-0.839009,0.000000
1679401992.456532,34.134342,119.681728,-2.460219,-2.997982,-2.339356,55.701054,0.000000,-7.426656,-1.069945,0.000000
1679401992.456580,34.134342,119.681728,-2.460219,-2.997982,-2.339356,55.701054,0.000000,-7.426656,-1.069945,0.000000
1679401992.562848,34.578646,120.634059,-2.449809,-2.989945,-2.395265,57.275746,0.000000,-7.726042,-1.306750,0.000000
1679401992.562898,34.578646,120.634059,-2.449809,-2.989945,-2.395265,57.275746,0.000000,-7.726042,-1.306750,0.000000
1679401992.663189,34.959169,121.496961,-2.440732,-2.982795,-2.445746,58.695667,0.000000,-8.024667,-1.548870,0.000000
1679401992.663245,34.959169,121.496961,-2.440732,-2.982795,-2.445746,58.695667,0.000000,-8.024667,-1.548870,0.000000
1679401992.766509,35.280782,122.272080,-2.432961,-2.976797,-2.490995,59.961629,0.000000,-8.322632,-1.795774,0.000000
1679401992.766534,35.280782,122.272080,-2.432961,-2.976797,-2.490995,59.961629,0.000000,-8.322632,-1.795774,0.000000
1679401992.857108,35.549112,122.961865,-2.426471,-2.972108,-2.531284,61.077604,0.000000,-8.620065,-2.046946,0.000000
1679401992.956924,35.760759,123.564260,-2.421259,-2.969312,-2.566341,62.030295,0.000000,-8.917109,-2.301899,0.000000
1679401993.062914,35.945243,124.091780,-2.417377,-2.967179,-2.597931,62.872575,0.000000,-9.213915,-2.560169,0.000000
1679401993.163753,36.062120,124.523013,-2.414895,-2.968239,-2.623469,63.515990,0.000000,-9.510670,-2.821289,0.000000
1679401993.163808,36.062120,124.523013,-2.414895,-2.968239,-2.623469,63.515990,0.000000,-9.510670,-2.821289,0.000000
1679401993.258188,36.142874,124.872287,-2.413852,-2.971037,-2.644868,64.019994,0.000000,-9.807608,-3.084766,0.000000
1679401993.366087,36.164999,125.128551,-2.414269,-2.977061,-2.660700,64.335354,0.000000,-10.104996,-3.350089,0.000000
1679401993.366148,36.164999,125.128551,-2.414269,-2.977061,-2.660700,64.335354,0.000000,-10.104996,-3.350089,0.000000
1679401993.464430,36.138708,125.297288,-2.416167,-2.985917,-2.671592,64.481429,0.000000,-10.403123,-3.616752,0.000000
1679401993.464476,36.138708,125.297288,-2.416167,-2.985917,-2.671592,64.481429,0.000000,-10.403123,-3.616752,0.000000
1679401993.561108,36.061702,125.378013,-2.419576,-2.997867,-2.677396,64.452789,0.000000,-10.702292,-3.884247,0.000000
1679401993.561152,36.061702,125.378013,-2.419576,-2.997867,-2.677396,64.452789,0.000000,-10.702292,-3.884247,0.000000
1679401993.660627,35.933319,125.371009,-2.424543,-3.013038,-2.678062,64.248139,0.000000,-11.002818,-4.152063,0.000000
1679401993.660685,35.933319,125.371009,-2.424543,-3.013038,-2.678062,64.248139,0.000000,-11.002818,-4.152063,0.000000
1679401993.758325,35.750435,125.275689,-2.431120,-3.031646,-2.673388,63.862235,0.000000,-11.305033,-4.419678,0.000000
1679401993.856689,35.513097,125.093182,-2.439379,-3.053679,-2.663375,63.297410,0.000000,-11.609281,-4.686556,0.000000
1679401993.856734,35.513097,125.093182,-2.439379,-3.053679,-2.663375,63.297410,0.000000,-11.609281,-4.686556,0.000000
1679401993.957540,35.215981,124.821532,-2.449423,-3.079389,-2.647661,62.545219,0.000000,-11.915915,-4.952150,0.000000
1679401993.957582,35.215981,124.821532,-2.449423,-3.079389,-2.647661,62.545219,0.000000,-11.915915,-4.952150,0.000000
1679401993.957786,35.215981,124.821532,-2.449423,-3.079389,-2.647661,62.545219,0.000000,-11.915915,-4.952150,0.000000
1679401994.056775,34.860683,124.462444,-2.461378,-3.108584,-2.626338,61.612758,0.000000,-12.225306,-5.215879,0.000000
1679401994.056929,34.860683,124.462444,-2.461378,-3.108584,-2.626338,61.612758,0.000000,-12.225306,-5.215879,0.000000
1679401994.056975,34.860683,124.462444,-2.461378,-3.108584,-2.626338,61.612758,0.000000,-12.225306,-5.215879,0.000000
1679401994.167017,34.419680,124.004523,-2.475379,-3.142621,-2.597588,60.449431,0.000000,-12.537849,-5.477117,0.000000
1679401994.167071,34.419680,124.004523,-2.475379,-3.142621,-2.597588,60.449431,0.000000,-12.537849,-5.477117,0.000000
1679401994.265520,33.920313,123.461872,-2.491609,-3.179763,-2.563190,59.117306,0.000000,-12.853945,-5.735206,0.000000
1679401994.366164,33.325083,122.817672,-2.510316,-3.221730,-2.520588,57.547660,0.000000,-13.174012,-5.989430,0.000000
1679401994.366199,33.325083,122.817672,-2.510316,-3.221730,-2.520588,57.547660,0.000000,-13.174012,-5.989430,0.000000
1679401994.457685,32.626162,122.071238,-2.531747,-3.268472,-2.469208,55.736420,0.000000,-13.498501,-6.238976,0.000000
1679401994.558291,31.806202,121.222223,-2.556072,-3.320261,-2.407899,53.667308,0.000000,-13.827921,-6.482888,0.000000
1679401994.662261,30.848701,120.273454,-2.583444,-3.377125,-2.335566,51.330699,0.000000,-14.162776,-6.720122,0.000000
1679401994.757409,29.739123,119.232017,-2.613966,-3.438785,-2.251261,48.726007,0.000000,-14.503566,-6.949523,0.000000
1679401994.866132,28.465502,118.107441,-2.647736,-3.504644,-2.154188,45.860395,0.000000,-14.850738,-7.169858,0.000000
1679401994.963750,27.012083,116.910506,-2.684819,-3.574079,-2.043292,42.737701,0.000000,-15.204682,-7.379796,0.000000
1679401995.059602,25.364485,115.655132,-2.725207,-3.646188,-1.917614,39.367272,0.000000,-15.565713,-7.577906,0.000000
1679401995.059638,25.364485,115.655132,-2.725207,-3.646188,-1.917614,39.367272,0.000000,-15.565713,-7.577906,0.000000
1679401995.165349,23.510461,114.358250,-2.768797,-3.719775,-1.776333,35.763850,0.000000,-15.934043,-7.762663,0.000000
1679401995.257002,21.443440,113.040015,-2.815382,-3.793298,-1.619044,31.951315,0.000000,-16.309740,-7.932490,0.000000
1679401995.257100,21.443440,113.040015,-2.815382,-3.793298,-1.619044,31.951315,0.000000,-16.309740,-7.932490,0.000000
1679401995.257122,21.443440,113.040015,-2.815382,-3.793298,-1.619044,31.951315,0.000000,-16.309740,-7.932490,0.000000
1679401995.357903,19.174153,111.722991,-2.864655,-3.864602,-1.446572,27.976628,0.000000,-16.692698,-8.085806,0.000000
1679401995.459557,16.702212,110.424326,-2.916258,-3.931830,-1.258914,23.862905,0.000000,-17.082603,-8.221088,0.000000
1679401995.566123,14.058655,109.160864,-2.969889,-3.992509,-1.058422,19.672362,0.000000,-17.478907,-8.336977,0.000000
1679401995.566158,14.058655,109.160864,-2.969889,-3.992509,-1.058422,19.672362,0.000000,-17.478907,-8.336977,0.000000
1679401995.663694,11.237601,107.946029,-3.025097,-4.045278,-0.844850,15.408111,0.000000,-17.880897,-8.432135,0.000000
1679401995.663748,11.237601,107.946029,-3.025097,-4.045278,-0.844850,15.408111,0.000000,-17.880897,-8.432135,0.000000
1679401995.766170,8.277030,106.793194,-3.081310,-4.087958,-0.621186,11.127955,0.000000,-18.287673,-8.505392,0.000000
1679401995.859395,5.213605,105.707288,-3.138075,-4.118845,-0.390409,6.878521,0.000000,-18.698132,-8.555906,0.000000
1679401995.859441,5.213605,105.707288,-3.138075,-4.118845,-0.390409,6.878521,0.000000,-18.698132,-8.555906,0.000000
1679401995.859476,5.213605,105.707288,-3.138075,-4.118845,-0.390409,6.878521,0.000000,-18.698132,-8.555906,0.000000
1679401995.959206,2.077812,104.689304,-3.194995,-4.136860,-0.155159,2.692508,0.000000,-19.111037,-8.583093,0.000000
1679401995.959346,2.077812,104.689304,-3.194995,-4.136860,-0.155159,2.692508,0.000000,-19.111037,-8.583093,0.000000
1679401995.959389,2.077812,104.689304,-3.194995,-4.136860,-0.155159,2.692508,0.000000,-19.111037,-8.583093,0.000000
1679401995.959568,2.077812,104.689304,-3.194995,-4.136860,-0.155159,2.692508,0.000000,-19.111037,-8.583093,0.000000
1679401996.060448,-1.103217,103.737068,-3.251747,-4.141413,0.082100,-1.405368,0.000000,-19.525066,-8.586636,0.000000
1679401996.060496,-1.103217,103.737068,-3.251747,-4.141413,0.082100,-1.405368,0.000000,-19.525066,-8.586636,0.000000
1679401996.060637,-1.103217,103.737068,-3.251747,-4.141413,0.082100,-1.405368,0.000000,-19.525066,-8.586636,0.000000
1679401996.060686,-1.103217,103.737068,-3.251747,-4.141413,0.082100,-1.405368,0.000000,-19.525066,-8.586636,0.000000
1679401996.159853,-4.307187,102.846903,-3.308042,-4.132343,0.319225,-5.398599,0.000000,-19.938863,-8.566437,0.000000
1679401996.264537,-7.511019,102.012828,-3.363665,-4.109814,0.554003,-9.270491,0.000000,-20.351070,-8.522634,0.000000
1679401996.264576,-7.511019,102.012828,-3.363665,-4.109814,0.554003,-9.270491,0.000000,-20.351070,-8.522634,0.000000
1679401996.364666,-10.696280,101.229229,-3.418441,-4.074376,0.784608,-13.010416,0.000000,-20.760366,-8.455544,0.000000
1679401996.466863,-13.861183,100.490290,-3.472220,-4.026514,1.010456,-16.627453,0.000000,-21.165489,-8.365638,0.000000
1679401996.466898,-13.861183,100.490290,-3.472220,-4.026514,1.010456,-16.627453,0.000000,-21.165489,-8.365638,0.000000
1679401996.467104,-13.861183,100.490290,-3.472220,-4.026514,1.010456,-16.627453,0.000000,-21.165489,-8.365638,0.000000
1679401996.566117,-16.966663,99.789916,-3.524898,-3.967661,1.228400,-20.085227,0.000000,-21.565260,-8.253535,0.000000
1679401996.566157,-16.966663,99.789916,-3.524898,-3.967661,1.228400,-20.085227,0.000000,-21.565260,-8.253535,0.000000
1679401996.664656,-20.038841,99.124112,-3.576343,-3.898024,1.439978,-23.424810,0.000000,-21.958588,-8.119928,0.000000
1679401996.664700,-20.038841,99.124112,-3.576343,-3.898024,1.439978,-23.424810,0.000000,-21.958588,-8.119928,0.000000
1679401996.664837,-20.038841,99.124112,-3.576343,-3.898024,1.439978,-23.424810,0.000000,-21.958588,-8.119928,0.000000
1679401996.766908,-23.039432,98.484227,-3.626480,-3.819228,1.642241,-26.608478,0.000000,-22.344484,-7.965641,0.000000
1679401996.766943,-23.039432,98.484227,-3.626480,-3.819228,1.642241,-26.608478,0.000000,-22.344484,-7.965641,0.000000
1679401996.857204,-25.970403,97.863855,-3.675311,-3.732178,1.835177,-29.645356,0.000000,-22.722076,-7.791594,0.000000
1679401996.958457,-28.828091,97.256715,-3.722864,-3.637945,2.018468,-32.536640,0.000000,-23.090591,-7.598741,0.000000
1679401997.060333,-31.614633,96.657346,-3.769183,-3.537402,2.192252,-35.289170,0.000000,-23.449357,-7.388040,0.000000
1679401997.060387,-31.614633,96.657346,-3.769183,-3.537402,2.192252,-35.289170,0.000000,-23.449357,-7.388040,0.000000
1679401997.060426,-31.614633,96.657346,-3.769183,-3.537402,2.192252,-35.289170,0.000000,-23.449357,-7.388040,0.000000
1679401997.159265,-34.330101,96.060215,-3.814310,-3.431424,2.356571,-37.906224,0.000000,-23.797788,-7.160438,0.000000
1679401997.159355,-34.330101,96.060215,-3.814310,-3.431424,2.356571,-37.906224,0.000000,-23.797788,-7.160438,0.000000
1679401997.263319,-36.975798,95.459836,-3.858301,-3.320795,2.511595,-40.391390,0.000000,-24.135379,-6.916876,0.000000
1679401997.366789,-39.554942,94.850660,-3.901209,-3.206143,2.657627,-42.749291,0.000000,-24.461699,-6.658268,0.000000
1679401997.459257,-42.066714,94.226666,-3.943098,-3.088227,2.794771,-44.979017,0.000000,-24.776383,-6.385506,0.000000
1679401997.563728,-44.520129,93.581813,-3.984036,-2.967259,2.923678,-47.089225,0.000000,-25.079122,-6.099454,0.000000
1679401997.563766,-44.520129,93.581813,-3.984036,-2.967259,2.923678,-47.089225,0.000000,-25.079122,-6.099454,0.000000
1679401997.660219,-46.904358,92.908823,-4.024095,-2.844412,3.043990,-49.066126,0.000000,-25.369656,-5.800938,0.000000
1679401997.660264,-46.904358,92.908823,-4.024095,-2.844412,3.043990,-49.066126,0.000000,-25.369656,-5.800938,0.000000
1679401997.764892,-49.247447,92.201602,-4.063352,-2.718751,3.157313,-50.936511,0.000000,-25.647768,-5.490754,0.000000
1679401997.765034,-49.247447,92.201602,-4.063352,-2.718751,3.157313,-50.936511,0.000000,-25.647768,-5.490754,0.000000
1679401997.865751,-51.527573,91.450719,-4.101845,-2.591920,3.262756,-52.672392,0.000000,-25.913254,-5.169640,0.000000
1679401997.865773,-51.527573,91.450719,-4.101845,-2.591920,3.262756,-52.672392,0.000000,-25.913254,-5.169640,0.000000
1679401997.965833,-53.757727,90.644074,-4.139674,-2.463596,3.361084,-54.278923,0.000000,-26.165976,-4.838340,0.000000
1679401998.064893,-55.941225,89.768406,-4.176937,-2.333962,3.452624,-55.749575,0.000000,-26.405800,-4.497553,0.000000
1679401998.163888,-58.082955,88.808009,-4.213725,-2.203046,3.537761,-57.076700,0.000000,-26.632595,-4.147940,0.000000
1679401998.163949,-58.082955,88.808009,-4.213725,-2.203046,3.537761,-57.076700,0.000000,-26.632595,-4.147940,0.000000
1679401998.257799,-60.187090,87.743515,-4.250112,-2.070851,3.616825,-58.248161,0.000000,-26.846235,-3.790122,0.000000
1679401998.366892,-62.257055,86.550598,-4.286162,-1.937356,3.690094,-59.246162,0.000000,-27.046589,-3.424691,0.000000
1679401998.366939,-62.257055,86.550598,-4.286162,-1.937356,3.690094,-59.246162,0.000000,-27.046589,-3.424691,0.000000
1679401998.465599,-64.291225,85.197920,-4.321942,-1.802796,3.757656,-60.041255,0.000000,-27.233538,-3.052223,0.000000
1679401998.465836,-64.291225,85.197920,-4.321942,-1.802796,3.757656,-60.041255,0.000000,-27.233538,-3.052223,0.000000
1679401998.465880,-64.291225,85.197920,-4.321942,-1.802796,3.757656,-60.041255,0.000000,-27.233538,-3.052223,0.000000
1679401998.557363,-66.295571,83.643412,-4.357519,-1.666843,3.819860,-60.601216,0.000000,-27.406964,-2.673272,0.000000
1679401998.557405,-66.295571,83.643412,-4.357519,-1.666843,3.819860,-60.601216,0.000000,-27.406964,-2.673272,0.000000
1679401998.666386,-68.264790,81.834059,-4.392940,-1.529820,3.876709,-60.872491,0.000000,-27.566737,-2.288371,0.000000
1679401998.666400,-68.264790,81.834059,-4.392940,-1.529820,3.876709,-60.872491,0.000000,-27.566737,-2.288371,0.000000
1679401998.763005,-70.206150,79.691885,-4.428240,-1.391068,3.928551,-60.790322,0.000000,-27.712728,-1.898041,0.000000
1679401998.763047,-70.206150,79.691885,-4.428240,-1.391068,3.928551,-60.790322,0.000000,-27.712728,-1.898041,0.000000
1679401998.858394,-72.094494,77.125870,-4.463449,-1.252016,3.974966,-60.246946,0.000000,-27.844814,-1.502797,0.000000
1679401998.858426,-72.094494,77.125870,-4.463449,-1.252016,3.974966,-60.246946,0.000000,-27.844814,-1.502797,0.000000
1679401998.961738,-73.951187,73.972509,-4.498595,-1.110555,4.016680,-59.111457,0.000000,-27.962877,-1.103150,0.000000
1679401999.060269,-75.731195,70.055593,-4.533692,-0.968944,4.053072,-57.179365,0.000000,-28.066800,-0.699605,0.000000
1679401999.060329,-75.731195,70.055593,-4.533692,-0.968944,4.053072,-57.179365,0.000000,-28.066800,-0.699605,0.000000
1679401999.162285,-77.427852,65.071741,-4.568756,-0.826042,4.084484,-54.165824,0.000000,-28.156484,-0.292669,0.000000
1679401999.162332,-77.427852,65.071741,-4.568756,-0.826042,4.084484,-54.165824,0.000000,-28.156484,-0.292669,0.000000
1679401999.264784,-78.998936,58.629102,-4.603799,-0.682321,4.110828,-49.675304,0.000000,-28.231837,0.117152,0.000000
1679401999.366947,-80.386269,50.216662,-4.638829,-0.537861,4.132107,-43.198337,0.000000,-28.292780,0.529352,0.000000
1679401999.366992,-80.386269,50.216662,-4.638829,-0.537861,4.132107,-43.198337,0.000000,-28.292780,0.529352,0.000000
1679401999.461138,-81.501756,39.324671,-4.673852,-0.392801,4.148312,-34.225927,0.000000,-28.339245,0.943423,0.000000
1679401999.566009,-82.229542,25.827508,-4.708870,-0.247277,4.159432,-22.633156,0.000000,-28.371179,1.358858,0.000000
1679401999.659441,-82.457860,10.611927,-4.743881,-0.101564,4.165453,-9.305675,0.000000,-28.388547,1.775148,0.000000
1679401999.764559,-82.145266,-4.441059,-4.778884,0.044507,4.166372,3.870914,0.000000,-28.391328,2.191782,0.000000
1679401999.863883,-81.352161,-17.476630,-4.813872,0.190109,4.162201,15.049995,0.000000,-28.379520,2.608251,0.000000
1679401999.863934,-81.352161,-17.476630,-4.813872,0.190109,4.162201,15.049995,0.000000,-28.379520,2.608251,0.000000
1679401999.864019,-81.352161,-17.476630,-4.813872,0.190109,4.162201,15.049995,0.000000,-28.379520,2.608251,0.000000
1679401999.864049,-81.352161,-17.476630,-4.813872,0.190109,4.162201,15.049995,0.000000,-28.379520,2.608251,0.000000
1679401999.864153,-81.352161,-17.476630,-4.813872,0.190109,4.162201,15.049995,0.000000,-28.379520,2.608251,0.000000
1679401999.864184,-81.352161,-17.476630,-4.813872,0.190109,4.162201,15.049995,0.000000,-28.379520,2.608251,0.000000
1679401999.964611,-80.193113,-27.909075,-4.848841,0.336002,4.152903,23.633784,0.000000,-28.353144,3.024045,0.000000
1679401999.964657,-80.193113,-27.909075,-4.848841,0.336002,4.152903,23.633784,0.000000,-28.353144,3.024045,0.000000
1679402000.064333,-78.790289,-35.866081,-4.883782,0.480547,4.138613,29.768514,0.000000,-28.312233,3.438654,0.000000
1679402000.064366,-78.790289,-35.866081,-4.883782,0.480547,4.138613,29.768514,0.000000,-28.312233,3.438654,0.000000
1679402000.162213,-77.214298,-41.989439,-4.918692,0.625357,4.119172,34.073128,0.000000,-28.256851,3.851575,0.000000
1679402000.162263,-77.214298,-41.989439,-4.918692,0.625357,4.119172,34.073128,0.000000,-28.256851,3.851575,0.000000
1679402000.162298,-77.214298,-41.989439,-4.918692,0.625357,4.119172,34.073128,0.000000,-28.256851,3.851575,0.000000
1679402000.261137,-75.533014,-46.690913,-4.953556,0.768755,4.094797,36.978452,0.000000,-28.187069,4.262303,0.000000
1679402000.261187,-75.533014,-46.690913,-4.953556,0.768755,4.094797,36.978452,0.000000,-28.187069,4.262303,0.000000
1679402000.357257,-73.776922,-50.379745,-4.988369,0.911171,4.065446,38.886009,0.000000,-28.102991,4.670342,0.000000
1679402000.357301,-73.776922,-50.379745,-4.988369,0.911171,4.065446,38.886009,0.000000,-28.102991,4.670342,0.000000
1679402000.457983,-71.970963,-53.319737,-5.023125,1.052261,4.031204,40.061798,0.000000,-28.004737,5.075198,0.000000
1679402000.458029,-71.970963,-53.319737,-5.023125,1.052261,4.031204,40.061798,0.000000,-28.004737,5.075198,0.000000
1679402000.564070,-70.130788,-55.700787,-5.057822,1.191831,3.992143,40.696048,0.000000,-27.892449,5.476385,0.000000
1679402000.564097,-70.130788,-55.700787,-5.057822,1.191831,3.992143,40.696048,0.000000,-27.892449,5.476385,0.000000
1679402000.665625,-68.266913,-57.657096,-5.092464,1.329707,3.948336,40.923123,0.000000,-27.766289,5.873427,0.000000
1679402000.665646,-68.266913,-57.657096,-5.092464,1.329707,3.948336,40.923123,0.000000,-27.766289,5.873427,0.000000
1679402000.765416,-66.386876,-59.284354,-5.127056,1.465704,3.899872,40.839076,0.000000,-27.626433,6.265851,0.000000
1679402000.765436,-66.386876,-59.284354,-5.127056,1.465704,3.899872,40.839076,0.000000,-27.626433,6.265851,0.000000
1679402000.856457,-64.493617,-60.654884,-5.161608,1.599834,3.846764,40.514084,0.000000,-27.473073,6.653195,0.000000
1679402000.964821,-62.591933,-61.819683,-5.196113,1.731887,3.789141,40.000010,0.000000,-27.306405,7.034999,0.000000
1679402000.964877,-62.591933,-61.819683,-5.196113,1.731887,3.789141,40.000010,0.000000,-27.306405,7.034999,0.000000
1679402000.964902,-62.591933,-61.819683,-5.196113,1.731887,3.789141,40.000010,0.000000,-27.306405,7.034999,0.000000
1679402001.064037,-60.679723,-62.822587,-5.230529,1.862080,3.726900,39.335685,0.000000,-27.126624,7.410808,0.000000
1679402001.064092,-60.679723,-62.822587,-5.230529,1.862080,3.726900,39.335685,0.000000,-27.126624,7.410808,0.000000
1679402001.064132,-60.679723,-62.822587,-5.230529,1.862080,3.726900,39.335685,0.000000,-27.126624,7.410808,0.000000
1679402001.166511,-58.769491,-63.684954,-5.264800,1.989538,3.660512,38.552285,0.000000,-26.933955,7.780179,0.000000
1679402001.256434,-56.851314,-64.439858,-5.298858,2.114945,3.589606,37.671400,0.000000,-26.728651,8.142687,0.000000
1679402001.256452,-56.851314,-64.439858,-5.298858,2.114945,3.589606,37.671400,0.000000,-26.728651,8.142687,0.000000
1679402001.362927,-54.953785,-65.087922,-5.332628,2.236337,3.515436,36.719176,0.000000,-26.511000,8.497933,0.000000
1679402001.457413,-53.055873,-65.660077,-5.366026,2.355109,3.437195,35.705099,0.000000,-26.281324,8.845544,0.000000
1679402001.562910,-51.182479,-66.153871,-5.399005,2.469577,3.356108,34.649266,0.000000,-26.040001,9.185195,0.000000
1679402001.666525,-49.329532,-66.583545,-5.431526,2.580018,3.272172,33.560962,0.000000,-25.787432,9.516589,0.000000
1679402001.763250,-47.500367,-66.957309,-5.463539,2.686249,3.185743,32.450358,0.000000,-25.524030,9.839461,0.000000
1679402001.856212,-45.696784,-67.282957,-5.494986,2.788202,3.097120,31.325698,0.000000,-25.250220,10.153577,0.000000
1679402001.856233,-45.696784,-67.282957,-5.494986,2.788202,3.097120,31.325698,0.000000,-25.250220,10.153577,0.000000
1679402001.962198,-43.925437,-67.564819,-5.525796,2.885532,3.006862,30.196309,0.000000,-24.966444,10.458741,0.000000
1679402002.057617,-42.189452,-67.807493,-5.555946,2.978133,2.915378,29.068776,0.000000,-24.673176,10.754817,0.000000
1679402002.057646,-42.189452,-67.807493,-5.555946,2.978133,2.915378,29.068776,0.000000,-24.673176,10.754817,0.000000
1679402002.162019,-40.489760,-68.016304,-5.585390,3.066061,2.822973,27.948124,0.000000,-24.370883,11.041694,0.000000
1679402002.260452,-38.828547,-68.195101,-5.614081,3.149302,2.730009,26.839173,0.000000,-24.060034,11.319300,0.000000
1679402002.365663,-37.211481,-68.346324,-5.641976,3.227702,2.637074,25.748299,0.000000,-23.741104,11.587605,0.000000
1679402002.365696,-37.211481,-68.346324,-5.641976,3.227702,2.637074,25.748299,0.000000,-23.741104,11.587605,0.000000
1679402002.366030,-37.211481,-68.346324,-5.641976,3.227702,2.637074,25.748299,0.000000,-23.741104,11.587605,0.000000
1679402002.366051,-37.211481,-68.346324,-5.641976,3.227702,2.637074,25.748299,0.000000,-23.741104,11.587605,0.000000
1679402002.463443,-35.634900,-68.474520,-5.669036,3.301576,2.544185,24.675930,0.000000,-23.414566,11.846621,0.000000
1679402002.463480,-35.634900,-68.474520,-5.669036,3.301576,2.544185,24.675930,0.000000,-23.414566,11.846621,0.000000
1679402002.564966,-34.115643,-68.578660,-5.695240,3.370320,2.452650,23.634444,0.000000,-23.080895,12.096403,0.000000
1679402002.564992,-34.115643,-68.578660,-5.695240,3.370320,2.452650,23.634444,0.000000,-23.080895,12.096403,0.000000
1679402002.565009,-34.115643,-68.578660,-5.695240,3.370320,2.452650,23.634444,0.000000,-23.080895,12.096403,0.000000
1679402002.659618,-32.628673,-68.668018,-5.720555,3.435251,2.361122,22.610576,0.000000,-22.740545,12.337035,0.000000
1679402002.765229,-31.203465,-68.737941,-5.744922,3.495222,2.271702,21.623853,0.000000,-22.393958,12.568623,0.000000
1679402002.858695,-29.831037,-68.791895,-5.768356,3.550797,2.184035,20.669712,0.000000,-22.041592,12.791348,0.000000
1679402002.963635,-28.512783,-68.831308,-5.790887,3.602134,2.098440,19.750025,0.000000,-21.683886,13.005412,0.000000
1679402003.056912,-27.246086,-68.858324,-5.812540,3.649548,2.014949,18.863977,0.000000,-21.321247,13.211022,0.000000
1679402003.161884,-26.028059,-68.875036,-5.833326,3.693351,1.933548,18.010431,0.000000,-20.954050,13.408387,0.000000
1679402003.266032,-24.863451,-68.881438,-5.853274,3.733550,1.854732,17.192848,0.000000,-20.582657,13.597742,0.000000
1679402003.358515,-23.745006,-68.879798,-5.872429,3.770599,1.778156,16.406927,0.000000,-20.207406,13.779329,0.000000
1679402003.358558,-23.745006,-68.879798,-5.872429,3.770599,1.778156,16.406927,0.000000,-20.207406,13.779329,0.000000
1679402003.457424,-22.673036,-68.870888,-5.890814,3.804658,1.703977,15.653154,0.000000,-19.828602,13.953378,0.000000
1679402003.457457,-22.673036,-68.870888,-5.890814,3.804658,1.703977,15.653154,0.000000,-19.828602,13.953378,0.000000
1679402003.457642,-22.673036,-68.870888,-5.890814,3.804658,1.703977,15.653154,0.000000,-19.828602,13.953378,0.000000
1679402003.557045,-21.644386,-68.855917,-5.908459,3.835992,1.632094,14.929672,0.000000,-19.446532,14.120127,0.000000
1679402003.557070,-21.644386,-68.855917,-5.908459,3.835992,1.632094,14.929672,0.000000,-19.446532,14.120127,0.000000
1679402003.557080,-21.644386,-68.855917,-5.908459,3.835992,1.632094,14.929672,0.000000,-19.446532,14.120127,0.000000
1679402003.661243,-20.659832,-68.835356,-5.925392,3.864731,1.562672,14.237130,0.000000,-19.061460,14.279810,0.000000
1679402003.758171,-19.713580,-68.810552,-5.941647,3.891192,1.495392,13.571804,0.000000,-18.673633,14.432663,0.000000
1679402003.758200,-19.713580,-68.810552,-5.941647,3.891192,1.495392,13.571804,0.000000,-18.673633,14.432663,0.000000
1679402003.859143,-18.812154,-68.781046,-5.957253,3.915331,1.430818,12.938059,0.000000,-18.283275,14.578915,0.000000
1679402003.963555,-17.938493,-68.749455,-5.972244,3.937735,1.367779,12.324611,0.000000,-17.890595,14.718797,0.000000
1679402003.963588,-17.938493,-68.749455,-5.972244,3.937735,1.367779,12.324611,0.000000,-17.890595,14.718797,0.000000
1679402003.963822,-17.938493,-68.749455,-5.972244,3.937735,1.367779,12.324611,0.000000,-17.890595,14.718797,0.000000
1679402004.058843,-17.105492,-68.714637,-5.986615,3.958170,1.307285,11.740055,0.000000,-17.495776,14.852504,0.000000
1679402004.058951,-17.105492,-68.714637,-5.986615,3.958170,1.307285,11.740055,0.000000,-17.495776,14.852504,0.000000
1679402004.160627,-16.308637,-68.677254,-6.000399,3.976858,1.249068,11.181330,0.000000,-17.099001,14.980273,0.000000
1679402004.160654,-16.308637,-68.677254,-6.000399,3.976858,1.249068,11.181330,0.000000,-17.099001,14.980273,0.000000
1679402004.261869,-15.545971,-68.637413,-6.013656,3.993947,1.193040,10.647025,0.000000,-16.700439,15.102333,0.000000
1679402004.356957,-14.813728,-68.595558,-6.026435,4.009618,1.138972,10.134559,0.000000,-16.300242,15.218891,0.000000
1679402004.461524,-14.108796,-68.552061,-6.038774,4.024022,1.086673,9.641789,0.000000,-15.898543,15.330134,0.000000
1679402004.461595,-14.108796,-68.552061,-6.038774,4.024022,1.086673,9.641789,0.000000,-15.898543,15.330134,0.000000
1679402004.461866,-14.108796,-68.552061,-6.038774,4.024022,1.086673,9.641789,0.000000,-15.898543,15.330134,0.000000
1679402004.557305,-13.429154,-68.507231,-6.050699,4.037274,1.036027,9.167314,0.000000,-15.495462,15.436228,0.000000
1679402004.665693,-12.774841,-68.460900,-6.062252,4.049433,0.987069,8.711070,0.000000,-15.091112,15.537346,0.000000
1679402004.665726,-12.774841,-68.460900,-6.062252,4.049433,0.987069,8.711070,0.000000,-15.091112,15.537346,0.000000
1679402004.756430,-12.142145,-68.413317,-6.073478,4.060635,0.939547,8.270495,0.000000,-14.685596,15.633642,0.000000
1679402004.860723,-11.527277,-68.364774,-6.084404,4.070994,0.893197,7.842995,0.000000,-14.279002,15.725246,0.000000
1679402004.860753,-11.527277,-68.364774,-6.084404,4.070994,0.893197,7.842995,0.000000,-14.279002,15.725246,0.000000
1679402004.959363,-10.931441,-68.315180,-6.095054,4.080539,0.848132,7.429331,0.000000,-13.871414,15.812280,0.000000
1679402004.959399,-10.931441,-68.315180,-6.095054,4.080539,0.848132,7.429331,0.000000,-13.871414,15.812280,0.000000
1679402005.063911,-10.348374,-68.264942,-6.105447,4.089401,0.803889,7.025249,0.000000,-13.462907,15.894853,0.000000
1679402005.160360,-9.787181,-68.213481,-6.115604,4.097489,0.761184,6.636832,0.000000,-13.053552,15.973071,0.000000
1679402005.160384,-9.787181,-68.213481,-6.115604,4.097489,0.761184,6.636832,0.000000,-13.053552,15.973071,0.000000
1679402005.257864,-9.226999,-68.162188,-6.125526,4.105123,0.718424,6.250030,0.000000,-12.643412,16.047020,0.000000
1679402005.356828,-8.691254,-68.109794,-6.135223,4.112024,0.677428,5.880572,0.000000,-12.232548,16.116795,0.000000
1679402005.356849,-8.691254,-68.109794,-6.135223,4.112024,0.677428,5.880572,0.000000,-12.232548,16.116795,0.000000
1679402005.457556,-8.165070,-68.056943,-6.144712,4.118402,0.637059,5.518394,0.000000,-11.821019,16.182489,0.000000
1679402005.457577,-8.165070,-68.056943,-6.144712,4.118402,0.637059,5.518394,0.000000,-11.821019,16.182489,0.000000
1679402005.556739,-7.651517,-68.003458,-6.154019,4.124253,0.597567,5.165532,0.000000,-11.408879,16.244195,0.000000
1679402005.664267,-7.148409,-67.949425,-6.163160,4.129627,0.558790,4.820487,0.000000,-10.996179,16.301987,0.000000
1679402005.664298,-7.148409,-67.949425,-6.163160,4.129627,0.558790,4.820487,0.000000,-10.996179,16.301987,0.000000
1679402005.758249,-6.654595,-67.894887,-6.172146,4.134556,0.520647,4.482460,0.000000,-10.582964,16.355935,0.000000
1679402005.860765,-6.169596,-67.839901,-6.180980,4.139062,0.483110,4.151113,0.000000,-10.169277,16.406099,0.000000
1679402005.957375,-5.694013,-67.784387,-6.189672,4.143156,0.446229,3.826820,0.000000,-9.755161,16.452543,0.000000
1679402006.064703,-5.226664,-67.728315,-6.198238,4.146862,0.409921,3.508765,0.000000,-9.340655,16.495327,0.000000
1679402006.161159,-4.766381,-67.671737,-6.206685,4.150206,0.374099,3.196152,0.000000,-8.925797,16.534507,0.000000
1679402006.161182,-4.766381,-67.671737,-6.206685,4.150206,0.374099,3.196152,0.000000,-8.925797,16.534507,0.000000
1679402006.257489,-4.313152,-67.614628,-6.215016,4.153197,0.338768,2.888953,0.000000,-8.510622,16.570128,0.000000
1679402006.257512,-4.313152,-67.614628,-6.215016,4.153197,0.338768,2.888953,0.000000,-8.510622,16.570128,0.000000
1679402006.365812,-3.866588,-67.557020,-6.223242,4.155856,0.303901,2.586898,0.000000,-8.095166,16.602242,0.000000
1679402006.465834,-3.425997,-67.498915,-6.231360,4.158192,0.269448,2.289509,0.000000,-7.679459,16.630887,0.000000
1679402006.564932,-2.991979,-67.440425,-6.239386,4.160230,0.235462,1.997179,0.000000,-7.263535,16.656116,0.000000
1679402006.564958,-2.991979,-67.440425,-6.239386,4.160230,0.235462,1.997179,0.000000,-7.263535,16.656116,0.000000
1679402006.664960,-2.562956,-67.381436,-6.247310,4.161966,0.201820,1.708838,0.000000,-6.847422,16.677958,0.000000
1679402006.762283,-2.140207,-67.321998,-6.255138,4.163412,0.168628,1.425329,0.000000,-6.431150,16.696461,0.000000
1679402006.859607,-1.723069,-67.262138,-6.262880,4.164586,0.135837,1.146200,0.000000,-6.014747,16.711664,0.000000
1679402006.966677,-1.311001,-67.201835,-6.270541,4.165496,0.103407,0.871079,0.000000,-5.598240,16.723608,0.000000
1679402007.066669,-0.903749,-67.141078,-6.278124,4.166151,0.071321,0.599787,0.000000,-5.181656,16.732325,0.000000
1679402007.156603,-0.501057,-67.079817,-6.285637,4.166557,0.039561,0.332146,0.000000,-4.765018,16.737851,0.000000
1679402007.156627,-0.501057,-67.079817,-6.285637,4.166557,0.039561,0.332146,0.000000,-4.765018,16.737851,0.000000
1679402007.259886,-0.103799,-67.017962,-6.293090,4.166719,0.008199,0.068727,0.000000,-4.348352,16.740221,0.000000
1679402007.360630,0.291575,-66.955481,-6.300493,4.166647,-0.023043,-0.192827,0.000000,-3.931682,16.739462,0.000000
1679402007.460504,0.681033,-66.892348,-6.307848,4.166345,-0.053845,-0.449849,0.000000,-3.515031,16.735598,0.000000
1679402007.558638,1.072240,-66.828490,-6.315165,4.165814,-0.084810,-0.707406,0.000000,-3.098421,16.728654,0.000000
1679402007.558672,1.072240,-66.828490,-6.315165,4.165814,-0.084810,-0.707406,0.000000,-3.098421,16.728654,0.000000
1679402007.666771,1.454551,-66.764016,-6.322444,4.165073,-0.115096,-0.958474,0.000000,-2.681875,16.718642,0.000000
1679402007.760812,1.839156,-66.698771,-6.329697,4.164110,-0.145585,-1.210429,0.000000,-2.265415,16.705589,0.000000
1679402007.864100,2.219857,-66.632671,-6.336925,4.162930,-0.175786,-1.459183,0.000000,-1.849062,16.689504,0.000000
1679402007.956578,2.598937,-66.565714,-6.344138,4.161538,-0.205878,-1.706236,0.000000,-1.432837,16.670405,0.000000
1679402008.059885,2.976696,-66.497835,-6.351345,4.159935,-0.235884,-1.951777,0.000000,-1.016763,16.648301,0.000000
1679402008.059925,2.976696,-66.497835,-6.351345,4.159935,-0.235884,-1.951777,0.000000,-1.016763,16.648301,0.000000
1679402008.059985,2.976696,-66.497835,-6.351345,4.159935,-0.235884,-1.951777,0.000000,-1.016763,16.648301,0.000000
1679402008.163406,3.353531,-66.428960,-6.358553,4.158121,-0.265834,-2.196058,0.000000,-0.600859,16.623200,0.000000
1679402008.258238,3.729745,-66.359020,-6.365766,4.156094,-0.295750,-2.439265,0.000000,-0.185148,16.595105,0.000000
1679402008.362493,4.106039,-66.287899,-6.372994,4.153848,-0.325687,-2.681842,0.000000,0.230350,16.564020,0.000000
1679402008.362521,4.106039,-66.287899,-6.372994,4.153848,-0.325687,-2.681842,0.000000,0.230350,16.564020,0.000000
1679402008.463694,4.481970,-66.215593,-6.380238,4.151388,-0.355609,-2.923486,0.000000,0.645613,16.529939,0.000000
1679402008.463725,4.481970,-66.215593,-6.380238,4.151388,-0.355609,-2.923486,0.000000,0.645613,16.529939,0.000000
1679402008.558736,4.859093,-66.141962,-6.387507,4.148701,-0.385638,-3.165190,0.000000,1.060618,16.492864,0.000000
1679402008.663536,5.235375,-66.067028,-6.394802,4.145797,-0.415612,-3.405616,0.000000,1.475343,16.452784,0.000000
1679402008.663576,5.235375,-66.067028,-6.394802,4.145797,-0.415612,-3.405616,0.000000,1.475343,16.452784,0.000000
1679402008.766993,5.614216,-65.990577,-6.402136,4.142654,-0.445800,-3.646946,0.000000,1.889766,16.409700,0.000000
1679402008.767041,5.614216,-65.990577,-6.402136,4.142654,-0.445800,-3.646946,0.000000,1.889766,16.409700,0.000000
1679402008.864807,5.993091,-65.912685,-6.409509,4.139289,-0.476000,-3.887524,0.000000,2.303863,16.363594,0.000000
1679402008.864850,5.993091,-65.912685,-6.409509,4.139289,-0.476000,-3.887524,0.000000,2.303863,16.363594,0.000000
1679402008.864879,5.993091,-65.912685,-6.409509,4.139289,-0.476000,-3.887524,0.000000,2.303863,16.363594,0.000000
1679402008.865104,5.993091,-65.912685,-6.409509,4.139289,-0.476000,-3.887524,0.000000,2.303863,16.363594,0.000000
1679402008.960628,6.373853,-65.833000,-6.416936,4.135673,-0.506358,-4.128508,0.000000,2.717611,16.314463,0.000000
1679402008.960668,6.373853,-65.833000,-6.416936,4.135673,-0.506358,-4.128508,0.000000,2.717611,16.314463,0.000000
1679402008.960893,6.373853,-65.833000,-6.416936,4.135673,-0.506358,-4.128508,0.000000,2.717611,16.314463,0.000000
1679402009.059128,6.756736,-65.751558,-6.424423,4.131809,-0.536893,-4.370026,0.000000,3.130986,16.262287,0.000000
1679402009.166462,7.142082,-65.668274,-6.431973,4.127691,-0.567630,-4.612267,0.000000,3.543961,16.207047,0.000000
1679402009.263190,7.529963,-65.583046,-6.439595,4.123311,-0.598574,-4.855240,0.000000,3.956511,16.148723,0.000000
1679402009.263241,7.529963,-65.583046,-6.439595,4.123311,-0.598574,-4.855240,0.000000,3.956511,16.148723,0.000000
1679402009.263265,7.529963,-65.583046,-6.439595,4.123311,-0.598574,-4.855240,0.000000,3.956511,16.148723,0.000000
1679402009.263339,7.529963,-65.583046,-6.439595,4.123311,-0.598574,-4.855240,0.000000,3.956511,16.148723,0.000000
1679402009.362606,7.921222,-65.495706,-6.447295,4.118653,-0.629790,-5.099443,0.000000,4.368609,16.087293,0.000000
1679402009.362633,7.921222,-65.495706,-6.447295,4.118653,-0.629790,-5.099443,0.000000,4.368609,16.087293,0.000000
1679402009.463255,8.314925,-65.406244,-6.455074,4.113722,-0.661205,-5.344238,0.000000,4.780227,16.022727,0.000000
1679402009.564133,8.715763,-65.314316,-6.462929,4.108448,-0.693186,-5.592575,0.000000,5.191336,15.954995,0.000000
1679402009.656987,9.114269,-65.220538,-6.470860,4.102952,-0.724986,-5.838390,0.000000,5.601905,15.884070,0.000000
1679402009.758043,9.526442,-65.123667,-6.478859,4.096999,-0.757862,-6.091785,0.000000,6.011904,15.809921,0.000000
1679402009.758071,9.526442,-65.123667,-6.478859,4.096999,-0.757862,-6.091785,0.000000,6.011904,15.809921,0.000000
1679402009.758234,9.526442,-65.123667,-6.478859,4.096999,-0.757862,-6.091785,0.000000,6.011904,15.809921,0.000000
1679402009.859936,9.926372,-65.025838,-6.486922,4.090967,-0.789774,-6.336350,0.000000,6.421301,15.732522,0.000000
1679402009.959700,10.343244,-64.924619,-6.495045,4.084410,-0.823017,-6.590463,0.000000,6.830067,15.651853,0.000000
1679402010.059679,10.757066,-64.821519,-6.503223,4.077616,-0.856013,-6.841467,0.000000,7.238168,15.567890,0.000000
1679402010.160551,11.173978,-64.716158,-6.511445,4.070494,-0.889246,-7.093211,0.000000,7.645572,15.480611,0.000000
1679402010.160593,11.173978,-64.716158,-6.511445,4.070494,-0.889246,-7.093211,0.000000,7.645572,15.480611,0.000000
1679402010.259699,11.592647,-64.608661,-6.519706,4.063061,-0.922607,-7.344827,0.000000,8.052249,15.390003,0.000000
1679402010.358062,12.013136,-64.499030,-6.527999,4.055310,-0.956100,-7.596325,0.000000,8.458166,15.296052,0.000000
1679402010.358092,12.013136,-64.499030,-6.527999,4.055310,-0.956100,-7.596325,0.000000,8.458166,15.296052,0.000000
1679402010.457219,12.435070,-64.387351,-6.536313,4.047246,-0.989692,-7.847450,0.000000,8.863293,15.198746,0.000000
1679402010.559695,12.859062,-64.273628,-6.544631,4.038852,-1.023429,-8.098562,0.000000,9.267596,15.098076,0.000000
1679402010.559724,12.859062,-64.273628,-6.544631,4.038852,-1.023429,-8.098562,0.000000,9.267596,15.098076,0.000000
1679402010.657995,13.280380,-64.158515,-6.552937,4.030222,-1.056937,-8.346744,0.000000,9.671048,14.994039,0.000000
1679402010.658031,13.280380,-64.158515,-6.552937,4.030222,-1.056937,-8.346744,0.000000,9.671048,14.994039,0.000000
1679402010.758041,13.705539,-64.041344,-6.561212,4.021219,-1.090722,-8.595993,0.000000,10.073618,14.886641,0.000000
1679402010.858831,14.121627,-63.923773,-6.569439,4.012118,-1.123774,-8.838424,0.000000,10.475281,14.775892,0.000000
1679402010.858863,14.121627,-63.923773,-6.569439,4.012118,-1.123774,-8.838424,0.000000,10.475281,14.775892,0.000000
1679402010.957208,14.547667,-63.803576,-6.577599,4.002507,-1.157571,-9.085634,0.000000,10.876011,14.661813,0.000000
1679402011.058842,14.956292,-63.684512,-6.585675,3.993009,-1.189981,-9.321065,0.000000,11.275787,14.544427,0.000000
1679402011.158738,15.368508,-63.563901,-6.593645,3.983147,-1.222636,-9.557459,0.000000,11.674589,14.423770,0.000000
1679402011.258844,15.773343,-63.443350,-6.601497,3.973184,-1.254679,-9.788233,0.000000,12.072402,14.299884,0.000000
1679402011.360548,16.172753,-63.322864,-6.609209,3.963088,-1.286262,-10.014640,0.000000,12.469212,14.172817,0.000000
1679402011.462314,16.566338,-63.202822,-6.616750,3.952883,-1.317350,-10.236530,0.000000,12.865006,14.042617,0.000000
1679402011.462341,16.566338,-63.202822,-6.616750,3.952883,-1.317350,-10.236530,0.000000,12.865006,14.042617,0.000000
1679402011.566820,16.953087,-63.083865,-6.624069,3.942607,-1.347861,-10.453435,0.000000,13.259776,13.909336,0.000000
1679402011.566865,16.953087,-63.083865,-6.624069,3.942607,-1.347861,-10.453435,0.000000,13.259776,13.909336,0.000000
1679402011.661108,17.328743,-62.967126,-6.631113,3.932388,-1.377460,-10.662988,0.000000,13.653519,13.773046,0.000000
1679402011.661129,17.328743,-62.967126,-6.631113,3.932388,-1.377460,-10.662988,0.000000,13.653519,13.773046,0.000000
1679402011.757818,17.689864,-62.853478,-6.637859,3.922341,-1.405883,-10.863305,0.000000,14.046250,13.633855,0.000000
1679402011.862189,18.037747,-62.743125,-6.644280,3.912458,-1.433227,-11.055320,0.000000,14.437983,13.491877,0.000000
1679402011.962306,18.368326,-62.637155,-6.650344,3.902879,-1.459182,-11.236836,0.000000,14.828742,13.347231,0.000000
1679402011.962340,18.368326,-62.637155,-6.650344,3.902879,-1.459182,-11.236836,0.000000,14.828742,13.347231,0.000000
1679402012.063344,18.684083,-62.535586,-6.656028,3.893565,-1.483937,-11.409490,0.000000,15.218558,13.200053,0.000000
1679402012.162139,18.977085,-62.440171,-6.661301,3.884769,-1.506885,-11.568876,0.000000,15.607465,13.050484,0.000000
1679402012.258708,19.256355,-62.349749,-6.666142,3.876260,-1.528717,-11.720401,0.000000,15.995509,12.898681,0.000000
1679402012.258746,19.256355,-62.349749,-6.666142,3.876260,-1.528717,-11.720401,0.000000,15.995509,12.898681,0.000000
1679402012.358293,19.511037,-62.266859,-6.670495,3.868384,-1.548602,-11.858057,0.000000,16.382732,12.744790,0.000000
1679402012.358328,19.511037,-62.266859,-6.670495,3.868384,-1.548602,-11.858057,0.000000,16.382732,12.744790,0.000000
1679402012.358485,19.511037,-62.266859,-6.670495,3.868384,-1.548602,-11.858057,0.000000,16.382732,12.744790,0.000000
1679402012.358508,19.511037,-62.266859,-6.670495,3.868384,-1.548602,-11.858057,0.000000,16.382732,12.744790,0.000000
1679402012.460552,19.741633,-62.191680,-6.674355,3.861158,-1.566580,-11.982311,0.000000,16.769200,12.589006,0.000000
1679402012.556764,19.947876,-62.124495,-6.677721,3.854617,-1.582636,-12.093171,0.000000,17.154980,12.431521,0.000000
1679402012.665368,20.130102,-62.065526,-6.680583,3.848779,-1.596799,-12.190993,0.000000,17.540141,12.272527,0.000000
1679402012.665411,20.130102,-62.065526,-6.680583,3.848779,-1.596799,-12.190993,0.000000,17.540141,12.272527,0.000000
1679402012.759165,20.289164,-62.014989,-6.682921,3.843641,-1.609135,-12.276436,0.000000,17.924753,12.112208,0.000000
1679402012.759196,20.289164,-62.014989,-6.682921,3.843641,-1.609135,-12.276436,0.000000,17.924753,12.112208,0.000000
1679402012.759210,20.289164,-62.014989,-6.682921,3.843641,-1.609135,-12.276436,0.000000,17.924753,12.112208,0.000000
1679402012.862452,20.420317,-61.974078,-6.684717,3.839373,-1.619285,-12.346956,0.000000,18.308893,11.950763,0.000000
1679402012.957720,20.525356,-61.942473,-6.685990,3.835938,-1.627391,-12.403644,0.000000,18.692651,11.788409,0.000000
1679402013.062505,20.605403,-61.920160,-6.686731,3.833314,-1.633541,-12.447234,0.000000,19.076105,11.625343,0.000000
1679402013.166778,20.660181,-61.907410,-6.686920,3.831521,-1.637711,-12.477662,0.000000,19.459339,11.461761,0.000000
1679402013.259883,20.688658,-61.904669,-6.686537,3.830600,-1.639825,-12.494429,0.000000,19.842437,11.297866,0.000000
1679402013.363259,20.689888,-61.912357,-6.685555,3.830585,-1.639807,-12.497067,0.000000,20.225488,11.133865,0.000000
1679402013.363322,20.689888,-61.912357,-6.685555,3.830585,-1.639807,-12.497067,0.000000,20.225488,11.133865,0.000000
1679402013.466830,20.662513,-61.930961,-6.683952,3.831522,-1.637555,-12.484859,0.000000,20.608587,10.969982,0.000000
1679402013.466871,20.662513,-61.930961,-6.683952,3.831522,-1.637555,-12.484859,0.000000,20.608587,10.969982,0.000000
1679402013.566113,20.604542,-61.961004,-6.681699,3.833468,-1.632911,-12.456686,0.000000,20.991828,10.806437,0.000000
1679402013.665395,20.517953,-62.002272,-6.678780,3.836357,-1.626025,-12.413662,0.000000,21.375314,10.643478,0.000000
1679402013.760637,20.396382,-62.056213,-6.675141,3.840372,-1.616406,-12.352169,0.000000,21.759142,10.481336,0.000000
1679402013.864203,20.238631,-62.122830,-6.670803,3.845536,-1.603963,-12.271367,0.000000,22.143430,10.320300,0.000000
1679402013.964995,20.045927,-62.201546,-6.665779,3.851781,-1.588788,-12.171745,0.000000,22.528291,10.160648,0.000000
1679402013.965032,20.045927,-62.201546,-6.665779,3.851781,-1.588788,-12.171745,0.000000,22.528291,10.160648,0.000000
1679402014.057297,19.819698,-62.291745,-6.660078,3.859028,-1.570984,-12.053887,0.000000,22.913827,10.002648,0.000000
1679402014.057324,19.819698,-62.291745,-6.660078,3.859028,-1.570984,-12.053887,0.000000,22.913827,10.002648,0.000000
1679402014.057514,19.819698,-62.291745,-6.660078,3.859028,-1.570984,-12.053887,0.000000,22.913827,10.002648,0.000000
1679402014.161599,19.560759,-62.393077,-6.653681,3.867209,-1.550608,-11.918046,0.000000,23.300134,9.846554,0.000000
1679402014.161631,19.560759,-62.393077,-6.653681,3.867209,-1.550608,-11.918046,0.000000,23.300134,9.846554,0.000000
1679402014.264989,19.263842,-62.506070,-6.646604,3.876441,-1.527253,-11.760903,0.000000,23.687314,9.692651,0.000000
1679402014.265021,19.263842,-62.506070,-6.646604,3.876441,-1.527253,-11.760903,0.000000,23.687314,9.692651,0.000000
1679402014.357284,18.934798,-62.629096,-6.638863,3.886491,-1.501360,-11.585482,0.000000,24.075459,9.541211,0.000000
1679402014.357310,18.934798,-62.629096,-6.638863,3.886491,-1.501360,-11.585482,0.000000,24.075459,9.541211,0.000000
1679402014.357365,18.934798,-62.629096,-6.638863,3.886491,-1.501360,-11.585482,0.000000,24.075459,9.541211,0.000000
1679402014.357376,18.934798,-62.629096,-6.638863,3.886491,-1.501360,-11.585482,0.000000,24.075459,9.541211,0.000000
1679402014.461250,18.571491,-62.762158,-6.630451,3.897366,-1.472758,-11.390238,0.000000,24.464651,9.392497,0.000000
1679402014.461436,18.571491,-62.762158,-6.630451,3.897366,-1.472758,-11.390238,0.000000,24.464651,9.392497,0.000000
1679402014.461476,18.571491,-62.762158,-6.630451,3.897366,-1.472758,-11.390238,0.000000,24.464651,9.392497,0.000000
1679402014.461517,18.571491,-62.762158,-6.630451,3.897366,-1.472758,-11.390238,0.000000,24.464651,9.392497,0.000000
1679402014.559653,18.175402,-62.904584,-6.621363,3.908960,-1.441553,-11.175699,0.000000,24.854967,9.246775,0.000000
1679402014.559705,18.175402,-62.904584,-6.621363,3.908960,-1.441553,-11.175699,0.000000,24.854967,9.246775,0.000000
1679402014.559819,18.175402,-62.904584,-6.621363,3.908960,-1.441553,-11.175699,0.000000,24.854967,9.246775,0.000000
1679402014.559852,18.175402,-62.904584,-6.621363,3.908960,-1.441553,-11.175699,0.000000,24.854967,9.246775,0.000000
1679402014.559953,18.175402,-62.904584,-6.621363,3.908960,-1.441553,-11.175699,0.000000,24.854967,9.246775,0.000000
1679402014.659647,17.743419,-63.056444,-6.611594,3.921292,-1.407498,-10.939686,0.000000,25.246480,9.104316,0.000000
1679402014.659689,17.743419,-63.056444,-6.611594,3.921292,-1.407498,-10.939686,0.000000,25.246480,9.104316,0.000000
1679402014.761559,17.279329,-63.216640,-6.601136,3.934181,-1.370876,-10.684043,0.000000,25.639255,8.965394,0.000000
1679402014.761595,17.279329,-63.216640,-6.601136,3.934181,-1.370876,-10.684043,0.000000,25.639255,8.965394,0.000000
1679402014.761849,17.279329,-63.216640,-6.601136,3.934181,-1.370876,-10.684043,0.000000,25.639255,8.965394,0.000000
1679402014.860723,16.774437,-63.385933,-6.589987,3.947773,-1.331009,-10.403203,0.000000,26.033354,8.830292,0.000000
1679402014.860750,16.774437,-63.385933,-6.589987,3.947773,-1.331009,-10.403203,0.000000,26.033354,8.830292,0.000000
1679402014.860955,16.774437,-63.385933,-6.589987,3.947773,-1.331009,-10.403203,0.000000,26.033354,8.830292,0.000000
1679402014.965901,16.242892,-63.561603,-6.578140,3.961605,-1.288979,-10.105155,0.000000,26.428827,8.699291,0.000000
1679402014.965935,16.242892,-63.561603,-6.578140,3.961605,-1.288979,-10.105155,0.000000,26.428827,8.699291,0.000000
1679402014.965948,16.242892,-63.561603,-6.578140,3.961605,-1.288979,-10.105155,0.000000,26.428827,8.699291,0.000000
1679402014.966161,16.242892,-63.561603,-6.578140,3.961605,-1.288979,-10.105155,0.000000,26.428827,8.699291,0.000000
1679402015.059889,15.666574,-63.745646,-6.565590,3.976039,-1.243380,-9.778621,0.000000,26.825717,8.572683,0.000000
1679402015.162212,15.058866,-63.936049,-6.552292,3.990649,-1.195237,-9.431266,0.000000,27.224053,8.450741,0.000000
1679402015.262339,14.408404,-64.133826,-6.538272,4.005622,-1.143673,-9.055759,0.000000,27.623873,8.333795,0.000000
1679402015.365869,13.719019,-64.337551,-6.523552,4.020741,-1.088981,-8.653865,0.000000,28.025198,8.222164,0.000000
1679402015.365906,13.719019,-64.337551,-6.523552,4.020741,-1.088981,-8.653865,0.000000,28.025198,8.222164,0.000000
1679402015.365973,13.719019,-64.337551,-6.523552,4.020741,-1.088981,-8.653865,0.000000,28.025198,8.222164,0.000000
1679402015.458180,12.992136,-64.546177,-6.508151,4.035849,-1.031269,-8.225928,0.000000,28.428036,8.116156,0.000000
1679402015.558950,12.229708,-64.758767,-6.492066,4.050772,-0.970687,-7.772673,0.000000,28.832376,8.016063,0.000000
1679402015.558969,12.229708,-64.758767,-6.492066,4.050772,-0.970687,-7.772673,0.000000,28.832376,8.016063,0.000000
1679402015.660692,11.426864,-64.975121,-6.475306,4.065474,-0.906859,-7.290589,0.000000,29.238198,7.922191,0.000000
1679402015.660740,11.426864,-64.975121,-6.475306,4.065474,-0.906859,-7.290589,0.000000,29.238198,7.922191,0.000000
1679402015.760146,10.587491,-65.193819,-6.457908,4.079738,-0.840094,-6.781580,0.000000,29.645470,7.834853,0.000000
1679402015.760168,10.587491,-65.193819,-6.457908,4.079738,-0.840094,-6.781580,0.000000,29.645470,7.834853,0.000000
1679402015.861747,9.713047,-65.413985,-6.439880,4.093399,-0.770513,-6.246127,0.000000,30.054139,7.754334,0.000000
1679402015.861782,9.713047,-65.413985,-6.439880,4.093399,-0.770513,-6.246127,0.000000,30.054139,7.754334,0.000000
1679402015.966928,8.802387,-65.635010,-6.421230,4.106330,-0.698039,-5.683086,0.000000,30.464139,7.680918,0.000000
1679402016.061166,7.857691,-65.856031,-6.401969,4.118358,-0.622857,-5.093454,0.000000,30.875388,7.614889,0.000000
1679402016.157678,6.874947,-66.076542,-6.382112,4.129377,-0.544671,-4.474272,0.000000,31.287789,7.556526,0.000000
1679402016.157730,6.874947,-66.076542,-6.382112,4.129377,-0.544671,-4.474272,0.000000,31.287789,7.556526,0.000000
1679402016.157758,6.874947,-66.076542,-6.382112,4.129377,-0.544671,-4.474272,0.000000,31.287789,7.556526,0.000000
1679402016.157783,6.874947,-66.076542,-6.382112,4.129377,-0.544671,-4.474272,0.000000,31.287789,7.556526,0.000000
1679402016.256919,5.863527,-66.295278,-6.361678,4.139140,-0.464244,-3.831254,0.000000,31.701231,7.506105,0.000000
1679402016.357797,4.806066,-66.512107,-6.340693,4.147635,-0.380233,-3.152774,0.000000,32.115586,7.463895,0.000000
1679402016.357940,4.806066,-66.512107,-6.340693,4.147635,-0.380233,-3.152774,0.000000,32.115586,7.463895,0.000000
1679402016.357976,4.806066,-66.512107,-6.340693,4.147635,-0.380233,-3.152774,0.000000,32.115586,7.463895,0.000000
1679402016.460721,3.732079,-66.725389,-6.319179,4.154502,-0.295002,-2.457860,0.000000,32.530709,7.430151,0.000000
1679402016.460769,3.732079,-66.725389,-6.319179,4.154502,-0.295002,-2.457860,0.000000,32.530709,7.430151,0.000000
1679402016.559992,2.613095,-66.935402,-6.297149,4.159778,-0.206341,-1.727621,0.000000,32.946440,7.405114,0.000000
1679402016.560031,2.613095,-66.935402,-6.297149,4.159778,-0.206341,-1.727621,0.000000,32.946440,7.405114,0.000000
1679402016.664208,1.463974,-67.140957,-6.274687,4.163254,-0.115468,-0.971605,0.000000,33.362609,7.389050,0.000000
1679402016.757628,0.286086,-67.340948,-6.251867,4.164786,-0.022535,-0.190583,0.000000,33.779028,7.382181,0.000000
1679402016.865256,-0.916191,-67.534341,-6.228764,4.164242,0.072063,0.612584,0.000000,34.195497,7.384692,0.000000
1679402016.962767,-2.138941,-67.720262,-6.205446,4.161518,0.167968,1.435241,0.000000,34.611803,7.396732,0.000000
1679402016.962801,-2.138941,-67.720262,-6.205446,4.161518,0.167968,1.435241,0.000000,34.611803,7.396732,0.000000
1679402017.060148,-3.378701,-67.897962,-6.181987,4.156540,0.264856,2.274948,0.000000,35.027722,7.418416,0.000000
1679402017.163783,-4.631873,-68.066733,-6.158459,4.149255,0.362395,3.129091,0.000000,35.443027,7.449824,0.000000
1679402017.256468,-5.889963,-68.226350,-6.134906,4.139676,0.459870,3.991682,0.000000,35.857488,7.490987,0.000000
1679402017.256511,-5.889963,-68.226350,-6.134906,4.139676,0.459870,3.991682,0.000000,35.857488,7.490987,0.000000
1679402017.362766,-7.155928,-68.376506,-6.111352,4.127761,0.557463,4.864424,0.000000,36.270874,7.541902,0.000000
1679402017.362819,-7.155928,-68.376506,-6.111352,4.127761,0.557463,4.864424,0.000000,36.270874,7.541902,0.000000
1679402017.458773,-8.422969,-68.517489,-6.087832,4.113587,0.654602,5.742420,0.000000,36.682952,7.602559,0.000000
1679402017.458814,-8.422969,-68.517489,-6.087832,4.113587,0.654602,5.742420,0.000000,36.682952,7.602559,0.000000
1679402017.565279,-9.704205,-68.648017,-6.064419,4.096991,0.752255,6.634183,0.000000,37.093494,7.672944,0.000000
1679402017.660365,-10.970300,-68.769362,-6.041201,4.078391,0.848127,7.519421,0.000000,37.502271,7.753020,0.000000
1679402017.660410,-10.970300,-68.769362,-6.041201,4.078391,0.848127,7.519421,0.000000,37.502271,7.753020,0.000000
1679402017.765238,-12.245313,-68.879180,-6.018262,4.057460,0.944031,8.413930,0.000000,37.909068,7.842697,0.000000
1679402017.863450,-13.504216,-68.978491,-5.995697,4.034640,1.038031,9.300173,0.000000,38.313678,7.941859,0.000000
1679402017.863600,-13.504216,-68.978491,-5.995697,4.034640,1.038031,9.300173,0.000000,38.313678,7.941859,0.000000
1679402017.962243,-14.748670,-69.066611,-5.973587,4.009988,1.130242,10.178668,0.000000,38.715911,8.050336,0.000000
1679402017.962284,-14.748670,-69.066611,-5.973587,4.009988,1.130242,10.178668,0.000000,38.715911,8.050336,0.000000
1679402018.059139,-15.973862,-69.143558,-5.952020,3.983707,1.220303,11.045546,0.000000,39.115596,8.167927,0.000000
1679402018.160712,-17.176260,-69.209193,-5.931100,3.956002,1.307962,11.897763,0.000000,39.512578,8.294405,0.000000
1679402018.160769,-17.176260,-69.209193,-5.931100,3.956002,1.307962,11.897763,0.000000,39.512578,8.294405,0.000000
1679402018.258388,-18.347772,-69.263585,-5.910953,3.927198,1.392647,12.729110,0.000000,39.906731,8.429506,0.000000
1679402018.258421,-18.347772,-69.263585,-5.910953,3.927198,1.392647,12.729110,0.000000,39.906731,8.429506,0.000000
1679402018.361653,-19.480486,-69.307412,-5.891660,3.897664,1.473818,13.533613,0.000000,40.297965,8.572897,0.000000
1679402018.465340,-20.573576,-69.340371,-5.873331,3.867608,1.551474,14.310027,0.000000,40.686217,8.724233,0.000000
1679402018.465384,-20.573576,-69.340371,-5.873331,3.867608,1.551474,14.310027,0.000000,40.686217,8.724233,0.000000
1679402018.563358,-21.617188,-69.363295,-5.856083,3.837501,1.624974,15.051059,0.000000,41.071456,8.883128,0.000000
1679402018.563401,-21.617188,-69.363295,-5.856083,3.837501,1.624974,15.051059,0.000000,41.071456,8.883128,0.000000
1679402018.662058,-22.608210,-69.376122,-5.840031,3.807636,1.694181,15.753929,0.000000,41.453694,9.049157,0.000000
1679402018.662113,-22.608210,-69.376122,-5.840031,3.807636,1.694181,15.753929,0.000000,41.453694,9.049157,0.000000
1679402018.759705,-23.533279,-69.380638,-5.825283,3.778650,1.758246,16.409180,0.000000,41.832984,9.221856,0.000000
1679402018.857449,-24.398583,-69.375505,-5.811943,3.750554,1.817714,17.020282,0.000000,42.209423,9.400721,0.000000
1679402018.958234,-25.174096,-69.365999,-5.800100,3.724598,1.870605,17.567160,0.000000,42.583150,9.585215,0.000000
1679402018.958268,-25.174096,-69.365999,-5.800100,3.724598,1.870605,17.567160,0.000000,42.583150,9.585215,0.000000
1679402018.958528,-25.174096,-69.365999,-5.800100,3.724598,1.870605,17.567160,0.000000,42.583150,9.585215,0.000000
1679402019.061518,-25.892331,-69.346125,-5.789868,3.699869,1.919305,18.070564,0.000000,42.954340,9.774789,0.000000
1679402019.166950,-26.509392,-69.322653,-5.781395,3.678085,1.960892,18.501197,0.000000,43.323204,9.968873,0.000000
1679402019.267114,-27.031266,-69.295343,-5.774688,3.659240,1.995896,18.862982,0.000000,43.690034,10.166786,0.000000
1679402019.358573,-27.456331,-69.265411,-5.769755,3.643581,2.024314,19.155000,0.000000,44.055141,10.367865,0.000000
